 [{
    "description": "Attack #1 - Paseo Drive - ST says 2-3:00AM",
    "location": "Rancho Cordova",
    "street":"Paseo Dr",
    "time": "4:00AM",
    "date": "6/18/1976",
    "type": "Attack",
    "id": 1,
    "name": "Attack #1"
}, {
    "description": "Attack #2 - Marlborough Way",
    "location": "Carmichael",
    "street":"Marborough Way",
    "time": "2:00AM",
    "date": "7/17/1976",
    "type": "Attack",
    "id": 2,
    "name": "Attack #2"
}, {
    "description": "Attack #3 - Malaga Way. Victims escaped. Aborted attack.",
    "location": "Rancho Cordova",
    "street":"Malaga Way",
    "time": "3:20AM",
    "date": "8/29/1976",
    "type": "Attack",
    "id": 3,
    "name": "Attack #3"
}, {
    "description": "Attack #4 - Crestview Drive.",
    "location": "Carmichael",
    "street":"Crestview Drive",
    "time": "11:30PM",
    "date": "9/4/1976",
    "type": "Attack",
    "id": 4,
    "name": "Attack #4"
}, {
    "description": "Attack #5 - Woodpark Way",
    "location": "Citrus Heights",
    "street":"Woodpark Way",
    "time": "6:45AM",
    "date": "10/5/1976",
    "type": "Attack",
    "id": 5,
    "name": "Attack #5"
}, {
    "description": "Attack #6 - El Segundo - This is the one with the weird neighbor",
    "location": "Rancho Cordova",
    "street":"El Segundo Dr",
    "time": "4:30AM",
    "date": "10/9/1976",
    "type": "Attack",
    "id": 6,
    "name": "Attack #6"
}, {
    "description": "Attack #7 - Kipling Drive",
    "location": "Carmichael",
    "street":"Kipling Drive",
    "time": "2:30AM",
    "date": "10/18/1976",
    "type": "Attack",
    "id": 7,
    "name": "Attack #7"
}, {
    "description": "Attack #8 - Los Palos - Aborted attack (not sure why) and not much additional information. Location is subject to debate.",
    "location": "Rancho Cordova",
    "street":"Los Palos",
    "time": "11:00PM",
    "date": "10/18/1976",
    "type": "Attack",
    "id": 8,
    "name": "Attack #8"
}, {
    "description": "Attack #9 - Greenleaf Drive - Took her to canal. Did not rape. Not many details.",
    "location": "Citrus Heights",
    "street":"Greenleaf Drive",
    "time": "7:30PM",
    "date": "11/10/1976",
    "type": "Attack",
    "id": 9,
    "name": "Attack #9"
}, {
    "description": "Attack #10 - Ladera Way - Per HAP not much record of what was found during neighborhood canvas.",
    "location": "Fair Oaks",
    "street":"Ladera Way",
    "time": "7:20PM",
    "date": "12/18/1976",
    "type": "Attack",
    "id": 10,
    "name": "Attack #10"
}, {
    "description": "Attack #11 - Glenville Circle",
    "location": "Sacramento",
    "street":"Glenville Circle",
    "time": "11:30PM",
    "date": "1/18/1977",
    "type": "Attack",
    "id": 11,
    "name": "Attack #11"
}, {
    "description": "Attack #12 - Primrose Drive",
    "location": "Citrus Heights",
    "street":"Primrose Dr",
    "time": "1:00AM",
    "date": "1/24/1977",
    "type": "Attack",
    "id": 12,
    "name": "Attack #12"
}, {
    "description": "Attack #13 - Heathcliff Drive",
    "location": "Carmichael",
    "street":"Heathcliff Drive",
    "time": "6:50AM",
    "date": "2/7/1977",
    "type": "Attack",
    "id": 13,
    "name": "Attack #13"
}, {
    "description": "Rodney Miller shot by prowler. Ripon Ct.",
    "location": "Sacramento",
    "street":"Ripon Ct",
    "time": "11:30PM",
    "date": "2/16/1977",
    "type": "Attack",
    "id": 14,
    "name": "None"
}, {
    "description": "Attack #14 - Thornwood Drive",
    "location": "Sacramento",
    "street":"Thornwood Drive",
    "time": "4:00AM",
    "date": "3/8/1977",
    "type": "Attack",
    "id": 15,
    "name": "Attack #14"
}, {
    "description": "Attack #15 - Benny Way",
    "location": "Rancho Cordova",
    "street":"Benny Way",
    "time": "10:45PM",
    "date": "3/18/1977",
    "type": "Attack",
    "id": 16,
    "name": "Attack #15"
}, {
    "description": "Attack #16 - Richdale Way",
    "location": "Orangevale",
    "street":"Richdale Way",
    "time": "3:20AM",
    "date": "4/2/1977",
    "type": "Attack",
    "id": 17,
    "name": "Attack #16"
}, {
    "description": "Attack #17 - Cherrelyn Way",
    "location": "Carmichael",
    "street":"Cherrelyn Way",
    "time": "2:45AM",
    "date": "4/15/1977",
    "type": "Attack",
    "id": 18,
    "name": "Attack #17"
}, {
    "description": "Attack #18 - La Riviera Drive",
    "location": "Sacramento",
    "street":"La Riviera Drive",
    "time": "3:00AM",
    "date": "5/3/1977",
    "type": "Attack",
    "id": 19,
    "name": "Attack #18"
}, {
    "description": "Attack #19 - Winterbrook Drive",
    "location": "Orangevale",
    "street":"Winterbrook Drive",
    "time": "12:15AM",
    "date": "5/5/1977",
    "type": "Attack",
    "id": 20,
    "name": "Attack #19"
}, {
    "description": "Attack #20 - Merlindale Drive",
    "location": "Citrus Heights",
    "street":"Merlindale Drive",
    "time": "3:45AM",
    "date": "5/14/1977",
    "type": "Attack",
    "id": 21,
    "name": "Attack #20"
}, {
    "description": "Attack #21 - Sandbar Circle",
    "location": "Carmichael",
    "street":"Sandbar Circle",
    "time": "1:30AM",
    "date": "5/17/1977",
    "type": "Attack",
    "id": 22,
    "name": "Attack #21"
}, {
    "description": "Attack #22 - 4th Park Way",
    "location": "Sacramento",
    "street":"4th Park Way",
    "time": "2:20AM",
    "date": "5/28/1977",
    "type": "Attack",
    "id": 23,
    "name": "Attack #22"
}, {
    "description": "Attack #23 - Portage Circle",
    "location": "Stockton",
    "street":"Portage Circle South",
    "time": "1:30AM",
    "date": "9/6/1977",
    "type": "Attack",
    "id": 24,
    "name": "Attack #23"
}, {
    "description": "Attack #24 - Tuolumne Drive",
    "location": "Rancho Cordova",
    "street":"Tuolumne Drive",
    "time": "1:00AM",
    "date": "10/1/1977",
    "type": "Attack",
    "id": 25,
    "name": "Attack #24"
}, {
    "description": "Attack #25 - Gold Run Avenue",
    "location": "Sacramento",
    "street":"Gold Run Avenue",
    "time": "3:00AM",
    "date": "10/21/1977",
    "type": "Attack",
    "id": 26,
    "name": "Attack #25"
}, {
    "description": "Attack #26 - Woodson Avenue - Linked by paint to Witthuhn",
    "location": "Sacramento",
    "street":"Woodson Avenue",
    "time": "1:45AM",
    "date": "10/29/1977",
    "type": "Attack",
    "id": 27,
    "name": "Attack #26"
}, {
    "description": "Attack #27 - La Riviera Drive - Linked by paint to Witthuhn",
    "location": "Sacramento",
    "street":"La Riviera Drive",
    "time": "3:30AM",
    "date": "11/10/1977",
    "type": "Attack",
    "id": 28,
    "name": "Attack #27"
}, {
    "description": "Attack #28 - Lobrett and Revelstok Dr",
    "location": "Sacramento",
    "street":"Brett Dr",
    "time": "11:30PM",
    "date": "12/2/1977",
    "type": "Attack",
    "id": 29,
    "name": "Attack #28"
}, {
    "description": "Attack #29 - Winding Way, E of Walnut, near American River College",
    "location": "Carmichael",
    "street":"Winding Way",
    "time": "11:00PM",
    "date": "1/28/1978",
    "type": "Attack",
    "id": 30,
    "name": "Attack #29"
}, {
    "description": "Maggiore double murder - La Alegria Drive",
    "location": "Rancho Cordova",
    "street":"La Algeria Drive",
    "time": "9:15PM",
    "date": "2/2/1978",
    "type": "Attack",
    "id": 31,
    "name": "None"
}, {
    "description": "Attack #30 - Meadow Ave",
    "location": "Stockton",
    "street":"Meadow ave",
    "time": "1:05AM",
    "date": "3/18/1978",
    "type": "Attack",
    "id": 32,
    "name": "Attack #30"
}, {
    "description": "Attack #31 - Piedmont Ave",
    "location": "Sacramento",
    "street":"Pierdmont Ave",
    "time": "9:50PM",
    "date": "4/14/1978",
    "type": "Attack",
    "id": 33,
    "name": "Attack #31"
}, {
    "description": "Attack #32 - Fuschia Lane",
    "location": "Modesto",
    "street":"Fuschia Lane",
    "time": "3:00AM",
    "date": "6/5/1978",
    "type": "Attack",
    "id": 34,
    "name": "Attack #32"
}, {
    "description": "Attack #33 - Wake Forrest",
    "location": "Davis",
    "street":"Portage Baye East",
    "time": "3:55AM",
    "date": "6/7/1978",
    "type": "Attack",
    "id": 35,
    "name": "Attack #33"
}, {
    "description": "Attack #34  - Grand Prix",
    "location": "Modesto",
    "street":"Sylvan Meadows Dr",
    "time": "1:30AM",
    "date": "6/23/1978",
    "type": "Attack",
    "id": 36,
    "name": "Attack #34"
}, {
    "description": "Attack #35 - Rivendell",
    "location": "Davis",
    "street":"Bucklebury Rd",
    "time": "3:15AM",
    "date": "6/24/1978",
    "type": "Attack",
    "id": 37,
    "name": "Attack #35"
}, {
    "description": "Attack #36 - Amador Drive",
    "location": "Davis",
    "street":"Amador Drive",
    "time": "2:50AM",
    "date": "7/6/1978",
    "type": "Attack",
    "id": 38,
    "name": "Attack #36"
}, {
    "description": "Attack #37 - Belann Ct",
    "location": "Concord",
    "street":"Belann Ct",
    "time": "2:30AM",
    "date": "10/7/1978",
    "type": "Attack",
    "id": 39,
    "name": "Attack #37"
}, {
    "description": "Attack #38 - Ryan Court",
    "location": "Concord",
    "street":"Ryan Court",
    "time": "4:30AM",
    "date": "10/13/1978",
    "type": "Attack",
    "id": 40,
    "name": "Attack #38"
}, {
    "description": "Attack #39 - Montclair Place",
    "location": "San Ramon",
    "street":"Montclair Place",
    "time": "2:30AM",
    "date": "10/28/1978",
    "type": "Attack",
    "id": 41,
    "name": "Attack #39"
}, {
    "description": "Attack #40 - Havenwood Drive",
    "location": "San Jose",
    "street":"Havenwood Dr",
    "time": "3:45AM",
    "date": "11/4/1978",
    "type": "Attack",
    "id": 42,
    "name": "Attack #40"
}, {
    "description": "Attack #41 - Kersey Lane",
    "location": "San Jose",
    "street":"Kesey Lane",
    "time": "2:00AM",
    "date": "12/2/1978",
    "type": "Attack",
    "id": 43,
    "name": "Attack #41"
}, {
    "description": "Attack #42 - Liberta Ct",
    "location": "Danville",
    "street":"Liberta Ct",
    "time": "2:00AM",
    "date": "12/9/1978",
    "type": "Attack",
    "id": 44,
    "name": "Attack #42"
}, {
    "description": "Attack #43 - Filmore Lane - Likely not EAR",
    "location": "Rancho Cordova",
    "street":"Filmore Lane",
    "time": "5:15AM",
    "date": "3/20/1979",
    "type": "Attack",
    "id": 45,
    "name": "Attack #43"
}, {
    "description": "Attack #44 - Honda Way",
    "location": "Fremont",
    "street":"Honda Way",
    "time": "12:20AM",
    "date": "4/4/1979",
    "type": "Attack",
    "id": 46,
    "name": "Attack #44"
}, {
    "description": "Attack #45 - El Divisadero Drive",
    "location": "Walnut Creek",
    "street":"El Divisadero Ave",
    "time": "10:30PM",
    "date": "6/2/1979",
    "type": "Attack",
    "id": 47,
    "name": "Attack #45"
}, {
    "description": "Attack #46 - Allegheny Drive",
    "location": "Danville",
    "street":"Allegheny Drive",
    "time": "4:00AM",
    "date": "6/11/1979",
    "type": "Attack",
    "id": 48,
    "name": "Attack #46"
}, {
    "description": "Attack #47 - San Pedro Court",
    "location": "Walnut Creek",
    "street":"San Pedro Court",
    "time": "4:15AM",
    "date": "6/25/1979",
    "type": "Attack",
    "id": 49,
    "name": "Attack #47"
}, {
    "description": "Attack #48 - Sycamore Court - Botched. Victim woke while EAR was putting on mask.",
    "location": "Danville",
    "street":"Thornhill Drive",
    "time": "4:30AM",
    "date": "7/5/1979",
    "type": "Attack",
    "id": 50,
    "name": "Attack #48"
}, {
    "description": "Botches ONS #1 - 5425 Queen Ann Lane",
    "location": "Goleta",
    "street":"Queen Ann Lane",
    "time": "2:00AM",
    "date": "10/1/1979",
    "type": "Attack",
    "id": 51,
    "name": "ONS Attack #1"
}, {
    "description": "Offerman/Manning",
    "location": "Goleta",
    "street":"Avenida Pequena Ave",
    "time": "4:00AM",
    "date": "12/30/1979",
    "type": "Attack",
    "id": 52,
    "name": "ONS Attack #2"
}, {
    "description": "Smiths",
    "location": "Ventura",
    "street":"High Point Dr",
    "time": "?",
    "date": "3/13/1980",
    "type": "Attack",
    "id": 53,
    "name": "ONS Attack #3"
}, {
    "description": "Harringtons",
    "location": "Dana Point",
    "street":"Cockleshell Dr",
    "time": "?",
    "date": "8/19/1980",
    "type": "Attack",
    "id": 54,
    "name": "ONS Attack #4"
}, {
    "description": "Witthuhn",
    "location": "Irvine",
    "street":"35 Columbus",
    "time": "2:00AM",
    "date": "2/16/1981",
    "type": "Attack",
    "id": 55,
    "name": "ONS Attack #5"
}, {
    "description": "Domingo/Sanchez",
    "location": "Goleta",
    "street":"Toltec Way",
    "time": "3:30AM",
    "date": "7/27/1981",
    "type": "Attack",
    "id": 56,
    "name": "ONS Attack #6"
}, {
    "description": "Cruz",
    "location": "Irvine",
    "street":"13 Encina",
    "time": "?",
    "date": "5/4/1986",
    "type": "Attack",
    "id": 57,
    "name": "ONS Attack #7"
}]